[
    {
        "\ufeffName of Place": "The Ritz Paris",
        "City": "Paris",
        "Country": "France",
        "Latitude": "48.8681",
        "Longitude": "2.3289"
    },
    {
        "\ufeffName of Place": "Brooklyn Mirage",
        "City": "Brooklyn",
        "Country": "United States of America",
        "Latitude": "40.7109",
        "Longitude": "73.9258"
    },
    {
        "\ufeffName of Place": "Las Vegas Motor Speedway",
        "City": "Las Vegas",
        "Country": "United States of America",
        "Latitude": "36.2725",
        "Longitude": "115.0104"
    },
    {
        "\ufeffName of Place": "La Jolla",
        "City": "San Diego",
        "Country": "United States of America",
        "Latitude": "32.8328",
        "Longitude": "117.2713"
    },
    {
        "\ufeffName of Place": "The Sebastian Hotel",
        "City": "Vail",
        "Country": "United States of America",
        "Latitude": "39.6426",
        "Longitude": "106.378"
    },
    {
        "\ufeffName of Place": "Grand Palace",
        "City": "Brussels",
        "Country": "Belgium",
        "Latitude": "50.8468",
        "Longitude": "4.3524"
    },
    {
        "\ufeffName of Place": "Big Ben",
        "City": "London",
        "Country": "United Kingdom",
        "Latitude": "51.5007",
        "Longitude": "0.1246"
    },
    {
        "\ufeffName of Place": "St. Regis",
        "City": "Aspen",
        "Country": "United States of America",
        "Latitude": "39.1869",
        "Longitude": "106.8211"
    },
    {
        "\ufeffName of Place": "Mila",
        "City": "Miami",
        "Country": "United States of America",
        "Latitude": "25.7901",
        "Longitude": "80.1367"
    },
    {
        "\ufeffName of Place": "Adler Planetarium",
        "City": "Chicago",
        "Country": "United States of America",
        "Latitude": "41.8664",
        "Longitude": "87.6068"
    },
    {
        "\ufeffName of Place": "The Midway",
        "City": "San Francisco",
        "Country": "United States of America",
        "Latitude": "37.7493",
        "Longitude": "122.3857"
    },
    {
        "\ufeffName of Place": "Piazza Del Duomo",
        "City": "Milan",
        "Country": "Italy",
        "Latitude": "43.7731",
        "Longitude": "11.2555"
    },
    {
        "\ufeffName of Place": "Conca dei Marini",
        "City": "Amalfi",
        "Country": "Italy",
        "Latitude": "40.6163",
        "Longitude": "14.5754"
    },
    {
        "\ufeffName of Place": "The Louvre",
        "City": "Paris",
        "Country": "France",
        "Latitude": "48.8606",
        "Longitude": "2.3376"
    },
    {
        "\ufeffName of Place": "Red Light District",
        "City": "Amsterdam",
        "Country": "Netherlands",
        "Latitude": "52.3719",
        "Longitude": "4.8959"
    },
    {
        "\ufeffName of Place": "Red Rocks",
        "City": "Morrison",
        "Country": "United States of America",
        "Latitude": "39.6655",
        "Longitude": "105.2052"
    },
    {
        "\ufeffName of Place": "Haleiwa",
        "City": "Oahu",
        "Country": "United States of America",
        "Latitude": "21.5928",
        "Longitude": "158.1034"
    },
    {
        "\ufeffName of Place": "Supertree Observatory",
        "City": "Marina Bay Area",
        "Country": "Singapore",
        "Latitude": "1.2816",
        "Longitude": "103.8636"
    },
    {
        "\ufeffName of Place": "Alona Beach",
        "City": "Panglao",
        "Country": "Phillippines",
        "Latitude": "9.5486",
        "Longitude": "123.774"
    },
    {
        "\ufeffName of Place": "Printworks",
        "City": "London",
        "Country": "United Kingdom",
        "Latitude": "51.4975",
        "Longitude": "0.0437"
    },
    {
        "\ufeffName of Place": "Long Beach",
        "City": "Los Angeles",
        "Country": "United States of America",
        "Latitude": "33.7701",
        "Longitude": "118.1937"
    },
    {
        "\ufeffName of Place": "Chocolate Hills",
        "City": "Bohol",
        "Country": "Phillippines",
        "Latitude": "9.8297",
        "Longitude": "124.1397"
    },
    {
        "\ufeffName of Place": "Robertson Quay",
        "City": "River Valley",
        "Country": "Singapore",
        "Latitude": "1.2908",
        "Longitude": "103.8373"
    },
    {
        "\ufeffName of Place": "Place Vendome",
        "City": "Paris",
        "Country": "France",
        "Latitude": "48.8674",
        "Longitude": "2.3294"
    },
    {
        "\ufeffName of Place": "Amsterdam Centraal",
        "City": "Amsterdam",
        "Country": "Netherlands",
        "Latitude": "52.3791",
        "Longitude": "4.9003"
    },
    {
        "\ufeffName of Place": "Park Güell",
        "City": "Barcelona",
        "Country": "Spain",
        "Latitude": "41.414494",
        "Longitude": "2.152695"
    },
    {
        "\ufeffName of Place": "Hï Ibiza",
        "City": "Ibiza",
        "Country": "Spain",
        "Latitude": "38.8858",
        "Longitude": "1.4041"
    },
    {
        "\ufeffName of Place": "Nikki Beach",
        "City": "Ibiza",
        "Country": "Spain",
        "Latitude": "38.9921",
        "Longitude": "1.5692"
    },
    {
        "\ufeffName of Place": "Llucmajor",
        "City": "Palma",
        "Country": "Spain",
        "Latitude": "39.4908",
        "Longitude": "2.8917"
    }
]